[{"geometry": {"location": {"lat": 47.8199096, "lng": 13.044104}, "viewport": {"northeast": {"lat": 47.8212619302915, "lng": 13.0455804302915}, "southwest": {"lat": 47.8185639697085, "lng": 13.0428824697085}}}, "icon": "https://maps.gstatic.com/mapfiles/place_api/icons/lodging-71.png", "id": "cba30e23e569447a53a36ceb731fd90468c8efc9", "name": "Restaurant Itzlingerhof", "opening_hours": {"open_now": false}, "photos": [{"height": 1363, "html_attributions": ["<a href=\"https://maps.google.com/maps/contrib/112134180234263984502/photos\">Restaurant Itzlingerhof</a>"], "photo_reference": "CmRaAAAA9hJJTmQtd1DRAdvm1vdyrcvh1sNH7k_OiuYVD99AGjj5ZOIbwQhgzDwFuQkIJ-ymoh4oQWPkcFlSz2mJPzRW5bY0cMk6kexcY5OzD3ek5Jt1K6iKHZ9J3-pi20TD_b0qEhAWrZKoFAHd02tEIGrYN4y-GhRgVCbJpeyoMIZLIbXMqXRjUW0VAw", "width": 1366}], "place_id": "ChIJ_6DuUJuadkcRzh5-x4Ww6C8", "plus_code": {"compound_code": "R29V+XJ Salzburg, Austria", "global_code": "8FVMR29V+XJ"}, "rating": 2.7, "reference": "ChIJ_6DuUJuadkcRzh5-x4Ww6C8", "scope": "GOOGLE", "types": ["lodging", "bar", "restaurant", "food", "point_of_interest", "establishment"], "user_ratings_total": 380, "vicinity": "Itzlinger Hauptstra\u00dfe 11, Salzburg"}, {"geometry": {"location": {"lat": 47.8269517, "lng": 13.0103825}, "viewport": {"northeast": {"lat": 47.8281874802915, "lng": 13.0118326802915}, "southwest": {"lat": 47.8254895197085, "lng": 13.0091347197085}}}, "icon": "https://maps.gstatic.com/mapfiles/place_api/icons/lodging-71.png", "id": "dc4e01b44d9eeb7c1dffd8e7bd246c364d9de744", "name": "Hotel Brandst\u00e4tter", "opening_hours": {"open_now": true}, "photos": [{"height": 1536, "html_attributions": ["<a href=\"https://maps.google.com/maps/contrib/115859621422884457545/photos\">Hotel Brandst\u00e4tter</a>"], "photo_reference": "CmRaAAAAPT2mniJ5v6Bh9qJtnFNr4bCiuNuVuZ6tCsPPkp5MjDABUMaFFxCEWJ1zKZ4mRZ_8LMYOk6RUx9tRExzJaekXclXmOiYXcYaua_zzFv7Rr78bGWrnI5O9WZAeK1pH0tlUEhDFSmmAlAapqLGrI3zbhyH2GhS2s6YhP8hmhwoCuOR3LEhqqFF3gA", "width": 2048}], "place_id": "ChIJ44eRDa2adkcRBpmhhcXRonA", "plus_code": {"compound_code": "R2G6+Q5 Salzburg, Austria", "global_code": "8FVMR2G6+Q5"}, "rating": 4.5, "reference": "ChIJ44eRDa2adkcRBpmhhcXRonA", "scope": "GOOGLE", "types": ["lodging", "restaurant", "food", "point_of_interest", "establishment"], "user_ratings_total": 152, "vicinity": "M\u00fcnchner Bundesstra\u00dfe 69, Salzburg"}, {"geometry": {"location": {"lat": 47.8135778, "lng": 13.0214824}, "viewport": {"northeast": {"lat": 47.8149584302915, "lng": 13.0229236802915}, "southwest": {"lat": 47.8122604697085, "lng": 13.0202257197085}}}, "icon": "https://maps.gstatic.com/mapfiles/place_api/icons/restaurant-71.png", "id": "29bc0a3980fe8869d2bc31d50e56492afbb1e82e", "name": "Pizza Italy of Salzburg", "photos": [{"height": 670, "html_attributions": ["<a href=\"https://maps.google.com/maps/contrib/101746507912200068831/photos\">Pizza Italy of Salzburg</a>"], "photo_reference": "CmRaAAAAifziqZmp-0vuG0A-amFFkmGpBGeQlwuJ4k1HmevYmRfH2hLk9f5ofgqvCCVbqeqJrqMZlp50VTI9YL_WBRBYlQD18EN4gGNwCO21j_sqtUEIepDifduh8kOuxy5fkMK1EhBWjurS2Szf8Go4k5X3oB65GhT8GCwJrG1lNyeKnQuBZdDjw-dsIg", "width": 1000}], "place_id": "ChIJg076YwmQdkcR5ivqc2S-_JE", "plus_code": {"compound_code": "R27C+CH Salzburg, Austria", "global_code": "8FVMR27C+CH"}, "rating": 3.8, "reference": "ChIJg076YwmQdkcR5ivqc2S-_JE", "scope": "GOOGLE", "types": ["restaurant", "food", "point_of_interest", "establishment"], "user_ratings_total": 20, "vicinity": "Ignaz-Harrer-Stra\u00dfe 83, Salzburg"}, {"geometry": {"location": {"lat": 47.817518, "lng": 13.0264668}, "viewport": {"northeast": {"lat": 47.8188025802915, "lng": 13.0277644302915}, "southwest": {"lat": 47.8161046197085, "lng": 13.0250664697085}}}, "icon": "https://maps.gstatic.com/mapfiles/place_api/icons/restaurant-71.png", "id": "a1916f636f9d1dc9bc50eb292ca0957c217df716", "name": "Goldener Stern", "opening_hours": {"open_now": false}, "photos": [{"height": 3024, "html_attributions": ["<a href=\"https://maps.google.com/maps/contrib/108422364852941075484/photos\">Vedran Vujicic</a>"], "photo_reference": "CmRaAAAAe-i-hGrKmPMH7vQEwIoBm3PtjLcPuqaFcSc2h3fI1iGPKWxhFmi-nGHcWU9t31XXObc8yWkJen0H68M_mc77EELi4MH0MbKZLJr3Xft0YY7Pi4dnoQtDWruGjJwLWZsREhBc36DVR9YQB541K3OnF1LtGhScva1AMZ4cczuLygbqFlnulDpIXw", "width": 4032}], "place_id": "ChIJXQitggyQdkcRsJslbOdxKsQ", "plus_code": {"compound_code": "R29G+2H Salzburg, Austria", "global_code": "8FVMR29G+2H"}, "rating": 3.9, "reference": "ChIJXQitggyQdkcRsJslbOdxKsQ", "scope": "GOOGLE", "types": ["restaurant", "food", "point_of_interest", "establishment"], "user_ratings_total": 92, "vicinity": "Stauffeneggstra\u00dfe 2, Salzburg"}, {"geometry": {"location": {"lat": 47.815419, "lng": 13.032212}, "viewport": {"northeast": {"lat": 47.81680058029151, "lng": 13.0335509802915}, "southwest": {"lat": 47.81410261970851, "lng": 13.0308530197085}}}, "icon": "https://maps.gstatic.com/mapfiles/place_api/icons/restaurant-71.png", "id": "095779491814f4e452bb3a3f52227097db738e42", "name": "Kumpel Kebap OG", "opening_hours": {"open_now": true}, "place_id": "ChIJI8RBeXWQdkcRJekMvEWlmi0", "plus_code": {"compound_code": "R28J+5V Salzburg, Austria", "global_code": "8FVMR28J+5V"}, "rating": 4.5, "reference": "ChIJI8RBeXWQdkcRJekMvEWlmi0", "scope": "GOOGLE", "types": ["restaurant", "food", "point_of_interest", "establishment"], "user_ratings_total": 32, "vicinity": "Franz-Martin-Stra\u00dfe 31, Salzburg"}, {"geometry": {"location": {"lat": 47.82989500000001, "lng": 13.0268463}, "viewport": {"northeast": {"lat": 47.8314431302915, "lng": 13.0280224802915}, "southwest": {"lat": 47.82874516970851, "lng": 13.0253245197085}}}, "icon": "https://maps.gstatic.com/mapfiles/place_api/icons/restaurant-71.png", "id": "605fbb5fdc724e8172ba8ca2d7a7d7ec1b516447", "name": "Panorama", "opening_hours": {"open_now": true}, "photos": [{"height": 1080, "html_attributions": ["<a href=\"https://maps.google.com/maps/contrib/115008323328197545473/photos\">Nenad Pozarcevic</a>"], "photo_reference": "CmRaAAAAjdrYuU59abBWvEZidFfvwx41y6NkKAS8ICS60IZ95FSwEotTSoPbvcl0UIMFcObclUGImEphZGoVVeL7QTwlxtU37c1G7w1ff70b3RW6a4gVRYauSIiRig0ld6D3Z-IYEhBCe0jWSZcAaqazU3XzmM_9GhSNU4aTocpDiHP22V5PL0hsT-7APQ", "width": 1920}], "place_id": "ChIJH32QsLuadkcRUIKkCjrPq8E", "plus_code": {"compound_code": "R2HG+XP Salzburg, Austria", "global_code": "8FVMR2HG+XP"}, "rating": 4.5, "reference": "ChIJH32QsLuadkcRUIKkCjrPq8E", "scope": "GOOGLE", "types": ["restaurant", "food", "point_of_interest", "establishment"], "user_ratings_total": 60, "vicinity": "Josef-Brandst\u00e4tter-Stra\u00dfe 6, Salzburg"}, {"geometry": {"location": {"lat": 47.8132188, "lng": 13.0266714}, "viewport": {"northeast": {"lat": 47.8145687302915, "lng": 13.0279596302915}, "southwest": {"lat": 47.8118707697085, "lng": 13.0252616697085}}}, "icon": "https://maps.gstatic.com/mapfiles/place_api/icons/restaurant-71.png", "id": "06917eeb03185b14c59ef678bdb13e62b00d6132", "name": "B\u00e4ckerei-Caf\u00e9 Resch&Frisch Salzburg Neue Mitte Lehen", "opening_hours": {"open_now": true}, "photos": [{"height": 1365, "html_attributions": ["<a href=\"https://maps.google.com/maps/contrib/111767288247080414729/photos\">B\u00e4ckerei-Caf\u00e9 Resch&amp;Frisch Salzburg Neue Mitte Lehen</a>"], "photo_reference": "CmRaAAAAWP9mx6QLeGSfHBXBcIu11HAWsrj8lVceQuY-KhCT74XE6fxb1GiTeBrtQGPgHc_3ZBV6PO8jhgHdzO442BlMX0OoI5StInrVEK0oBFwAO45qvW3hIwZA4KbFOX4w14axEhBIoLivwXfep9V6AigH0keiGhTNooOeQdPFxG4yVMTO4ynPbb0yPQ", "width": 2048}], "place_id": "ChIJSRtkGAuQdkcRYk3uiH5U5HY", "plus_code": {"compound_code": "R27G+7M Salzburg, Austria", "global_code": "8FVMR27G+7M"}, "price_level": 2, "rating": 3.8, "reference": "ChIJSRtkGAuQdkcRYk3uiH5U5HY", "scope": "GOOGLE", "types": ["bakery", "cafe", "restaurant", "food", "point_of_interest", "store", "establishment"], "user_ratings_total": 185, "vicinity": "Schumacherstra\u00dfe 14, Salzburg"}, {"geometry": {"location": {"lat": 47.8170977, "lng": 13.0169625}, "viewport": {"northeast": {"lat": 47.8185013802915, "lng": 13.0183733302915}, "southwest": {"lat": 47.8158034197085, "lng": 13.0156753697085}}}, "icon": "https://maps.gstatic.com/mapfiles/place_api/icons/restaurant-71.png", "id": "5e3c1c1b37e4df87d2ab5c7cf379228b050cf1b5", "name": "Restaurant Kohlpeter Fam. Obernhuber", "opening_hours": {"open_now": true}, "photos": [{"height": 1920, "html_attributions": ["<a href=\"https://maps.google.com/maps/contrib/111236740725170781874/photos\">M. G.</a>"], "photo_reference": "CmRaAAAAY7iTAGOx536FBJI55OaHMNXmx62Cx0qs9ln6KHQF7N8TcCzN-lZdOg1XD4k56jeHdXEc8kR_wkeLg4dYzTPRzdEAIQzVoVwHXLmTYJBxZEHOEk0e4jdTmiMLRF_mx7CbEhChYLmQfiMxx_5ELZt5QVTlGhSmyBw8y8jbP18GVWFPUny_bDSBsA", "width": 1080}], "place_id": "ChIJ1wGpBwiQdkcR3Vc9B1mD7Lc", "plus_code": {"compound_code": "R288+RQ Salzburg, Austria", "global_code": "8FVMR288+RQ"}, "price_level": 2, "rating": 4.5, "reference": "ChIJ1wGpBwiQdkcR3Vc9B1mD7Lc", "scope": "GOOGLE", "types": ["restaurant", "food", "point_of_interest", "establishment"], "user_ratings_total": 166, "vicinity": "Lieferinger Hauptstra\u00dfe 23, Salzburg"}, {"geometry": {"location": {"lat": 47.8189556, "lng": 13.0406046}, "viewport": {"northeast": {"lat": 47.8203266302915, "lng": 13.0420165302915}, "southwest": {"lat": 47.8176286697085, "lng": 13.0393185697085}}}, "icon": "https://maps.gstatic.com/mapfiles/place_api/icons/lodging-71.png", "id": "7d9c1db01f03564a2bf4f60c2b95a2ca7886dd0b", "name": "Gasthaus G\u00e4rtnerwirt", "opening_hours": {"open_now": false}, "photos": [{"height": 2848, "html_attributions": ["<a href=\"https://maps.google.com/maps/contrib/107881984436310814801/photos\">Gasthaus G\u00e4rtnerwirt</a>"], "photo_reference": "CmRaAAAAdZmDR0x8xpj_FrU-gc_fq1MPRfkOX12L82P5olcLO0y2dqtbaJKtaEtNAY6VNfL5MH8ni3lkPRyUex2f_LCjBU2QeUOWog2SB_I1ayZoLlxkPmnyq2FCeTeyQrvVyGrgEhCX-5K8pmehUAzpr_cLjlcuGhShWMaXuLGu2_2X2Hmufis5Byi2qQ", "width": 4288}], "place_id": "ChIJDVqeZpyadkcRaLW9Bp7gLrw", "plus_code": {"compound_code": "R29R+H6 Salzburg, Austria", "global_code": "8FVMR29R+H6"}, "rating": 4.5, "reference": "ChIJDVqeZpyadkcRaLW9Bp7gLrw", "scope": "GOOGLE", "types": ["lodging", "bar", "restaurant", "food", "point_of_interest", "establishment"], "user_ratings_total": 127, "vicinity": "Plainstra\u00dfe 93, Salzburg"}, {"geometry": {"location": {"lat": 47.811557, "lng": 13.0258007}, "viewport": {"northeast": {"lat": 47.8129449302915, "lng": 13.0271551302915}, "southwest": {"lat": 47.8102469697085, "lng": 13.0244571697085}}}, "icon": "https://maps.gstatic.com/mapfiles/place_api/icons/restaurant-71.png", "id": "148ac922f91608008dc255ef00d0ff7e9cbb07a0", "name": "Aganigi Naganigi", "opening_hours": {"open_now": true}, "photos": [{"height": 3024, "html_attributions": ["<a href=\"https://maps.google.com/maps/contrib/103509183797060953922/photos\">Yalcin Aslan</a>"], "photo_reference": "CmRaAAAAtzIFTh-1DRhrRJK5zbqn6HDQkji-S5G6MME5JNZIxPRMQ9GFS_ntIYDgEHW-kvQUxFHLKIwSJaRMuSXsCRxx2rk1Kaq-YI9LIVbJMIFmlPBVp0GbqDmcw5V8kGzlY7mtEhDJ7YN2YibStPS-nr3Xy3gMGhR8sxMwLE92y7QGRpaSwr3mtWPxMQ", "width": 4032}], "place_id": "ChIJW0wrngyQdkcRLgngTiE3AO0", "plus_code": {"compound_code": "R26G+J8 Salzburg, Austria", "global_code": "8FVMR26G+J8"}, "price_level": 1, "rating": 4.5, "reference": "ChIJW0wrngyQdkcRLgngTiE3AO0", "scope": "GOOGLE", "types": ["restaurant", "food", "point_of_interest", "establishment"], "user_ratings_total": 1324, "vicinity": "Ignaz-Harrer-Stra\u00dfe 55, Salzburg"}, {"geometry": {"location": {"lat": 47.81162510000001, "lng": 13.0295009}, "viewport": {"northeast": {"lat": 47.8129646302915, "lng": 13.0309734302915}, "southwest": {"lat": 47.8102666697085, "lng": 13.0282754697085}}}, "icon": "https://maps.gstatic.com/mapfiles/place_api/icons/restaurant-71.png", "id": "80d5e4b8fa8f5fae9892bfd2eb0105ef7ac141a0", "name": "Asia Wok-Man Vietnam-Thai-Sushibar", "opening_hours": {"open_now": false}, "photos": [{"height": 2976, "html_attributions": ["<a href=\"https://maps.google.com/maps/contrib/102503208316629877234/photos\">Kurt Lehner</a>"], "photo_reference": "CmRaAAAA5Wmr415mWse4kQ-R-TsQRAHPt0AIBAJ6okCM152eMvU-uLwznL6jpJh53MjKos-bhUMGTSpX4dsLPo-YbdrueQ_yyfZ4R5Xf9mUINHn3PqGmOkWIEtBAMX32T8Gun_XFEhBNEoZwPGQ3NkBCYkI1l0g5GhT-P9Oa1wbXDX0-rRFmGWyWCwyQBQ", "width": 3968}], "place_id": "ChIJaTVYmHSQdkcR05LbereMPiY", "plus_code": {"compound_code": "R26H+MR Salzburg, Austria", "global_code": "8FVMR26H+MR"}, "price_level": 1, "rating": 4, "reference": "ChIJaTVYmHSQdkcR05LbereMPiY", "scope": "GOOGLE", "types": ["restaurant", "food", "point_of_interest", "establishment"], "user_ratings_total": 79, "vicinity": "Roseggerstra\u00dfe 25, Salzburg"}, {"geometry": {"location": {"lat": 47.8113621, "lng": 13.0316898}, "viewport": {"northeast": {"lat": 47.8126784302915, "lng": 13.0330340802915}, "southwest": {"lat": 47.8099804697085, "lng": 13.0303361197085}}}, "icon": "https://maps.gstatic.com/mapfiles/place_api/icons/restaurant-71.png", "id": "ee01d9d520f6ec2d19f1c1d0cadbf9c26ec8c50c", "name": "Yessir Pizza", "opening_hours": {"open_now": false}, "photos": [{"height": 4032, "html_attributions": ["<a href=\"https://maps.google.com/maps/contrib/110215815701200821270/photos\">Lenny Mc Nichol</a>"], "photo_reference": "CmRaAAAAVuJ9vrV7uGMxWt9osBO9XFNqlExg_snCq4ahYdhkQQQmrRR97s_QnhrQawGT_DpBfYRIvlSVrC4-zX64xOCm-jdYLC0ux3EOJR6ZbR6ECkhJE5m5NnPFQegpBT6tc9bnEhDZeA3kkM5mbKioaAjeyprdGhTJVWANSBNvyb2NDYPyoYYrsOtGUg", "width": 3024}], "place_id": "ChIJy0byenSQdkcRc0W29kTJhhA", "plus_code": {"compound_code": "R26J+GM Salzburg, Austria", "global_code": "8FVMR26J+GM"}, "price_level": 1, "rating": 3.7, "reference": "ChIJy0byenSQdkcRc0W29kTJhhA", "scope": "GOOGLE", "types": ["restaurant", "food", "point_of_interest", "establishment"], "user_ratings_total": 45, "vicinity": "Ignaz-Harrer-Stra\u00dfe 30, Salzburg"}, {"geometry": {"location": {"lat": 47.8141326, "lng": 13.0387491}, "viewport": {"northeast": {"lat": 47.8155384302915, "lng": 13.0401015802915}, "southwest": {"lat": 47.8128404697085, "lng": 13.0374036197085}}}, "icon": "https://maps.gstatic.com/mapfiles/place_api/icons/restaurant-71.png", "id": "7b0bfca1592511b7fe7d21be1a460b3c0c1e1146", "name": "Il Padrino", "opening_hours": {"open_now": false}, "photos": [{"height": 3456, "html_attributions": ["<a href=\"https://maps.google.com/maps/contrib/104511886468298265381/photos\">Il Padrino</a>"], "photo_reference": "CmRaAAAA0GC5u7e4DGoAqm9H9cdhO_Zi-Nl_sXylp_pEZdkD-djr6OGtV-n9-e8LIs7_t_xEDHNexwj7fU656_Loq-JJk793v2RDOLmfSYZQkDz9xHgdUoYwVl_XqGc7I5jYLXvwEhCDUI2PgGN-v66Gs-nOxLgvGhQyeoeA16W8i7B_C27zgjSHCKFMqA", "width": 4608}], "place_id": "ChIJXT6bNHaQdkcR_zPn1rR9JkI", "plus_code": {"compound_code": "R27Q+MF Salzburg, Austria", "global_code": "8FVMR27Q+MF"}, "price_level": 2, "rating": 4.5, "reference": "ChIJXT6bNHaQdkcR_zPn1rR9JkI", "scope": "GOOGLE", "types": ["restaurant", "food", "point_of_interest", "establishment"], "user_ratings_total": 319, "vicinity": "Jahnstra\u00dfe 8, Salzburg"}, {"geometry": {"location": {"lat": 47.820586, "lng": 13.044112}, "viewport": {"northeast": {"lat": 47.8219398302915, "lng": 13.0455510802915}, "southwest": {"lat": 47.81924186970851, "lng": 13.0428531197085}}}, "icon": "https://maps.gstatic.com/mapfiles/place_api/icons/generic_business-71.png", "id": "d945769148cf151c467383577425f70b7e860b3c", "name": "Pizza Mann", "opening_hours": {"open_now": true}, "photos": [{"height": 656, "html_attributions": ["<a href=\"https://maps.google.com/maps/contrib/106138238383939134075/photos\">Pizza Mann</a>"], "photo_reference": "CmRaAAAARK6NyQkRItqn2TOupsWi9qFPDRDgI95WrvaUKr9n0kJXFCFx7EhyQY0BjQ6OnxSzbVspmPxUmCzF8dX5BAgEPsXElxEbOP2nHOYVI_AvQrVv4Rw3i0_PN0_7fAcU342OEhBiDYrAiTvFDmHYK-GAeaFJGhQcTzXX1o2lYTxfHxXg7JArh4MRyg", "width": 1773}], "place_id": "ChIJ0ezgRpuadkcR5edPlMRFF2g", "plus_code": {"compound_code": "R2CV+6J Salzburg, Austria", "global_code": "8FVMR2CV+6J"}, "price_level": 2, "rating": 3.3, "reference": "ChIJ0ezgRpuadkcR5edPlMRFF2g", "scope": "GOOGLE", "types": ["meal_delivery", "restaurant", "food", "point_of_interest", "establishment"], "user_ratings_total": 82, "vicinity": "Itzlinger Hauptstra\u00dfe 17, Salzburg"}, {"geometry": {"location": {"lat": 47.8206345, "lng": 13.0441309}, "viewport": {"northeast": {"lat": 47.8219876802915, "lng": 13.0455577302915}, "southwest": {"lat": 47.8192897197085, "lng": 13.0428597697085}}}, "icon": "https://maps.gstatic.com/mapfiles/place_api/icons/restaurant-71.png", "id": "56be861cc95077e4c56f3f2cbcf26d7be26074f0", "name": "Pommes Boutique", "opening_hours": {"open_now": true}, "photos": [{"height": 2610, "html_attributions": ["<a href=\"https://maps.google.com/maps/contrib/109945992278989297225/photos\">Fabian Schmid</a>"], "photo_reference": "CmRaAAAAHRb3mSTgAYz46OlTlEEqlHXKVhqzFvHDQZBNZlBBvKC18mdq2eXXT9eSwOr69m3cx52AtN_haO5WbL7_XeOC6UFetBoxu7YsLXczCPwSgw3kp4s1EkZGWEQXg9J-ARcZEhA051Osy8I0NPDQTjrNnoy5GhRutW9wehL4qT8Y5oAO8OhWBJPiyg", "width": 4640}], "place_id": "ChIJi-4AR5uadkcRd3JnsaY419o", "plus_code": {"compound_code": "R2CV+7M Salzburg, Austria", "global_code": "8FVMR2CV+7M"}, "rating": 4.3, "reference": "ChIJi-4AR5uadkcRd3JnsaY419o", "scope": "GOOGLE", "types": ["restaurant", "food", "point_of_interest", "establishment"], "user_ratings_total": 145, "vicinity": "Itzlinger Hauptstra\u00dfe 17, Salzburg"}, {"geometry": {"location": {"lat": 47.8250859, "lng": 13.0095657}, "viewport": {"northeast": {"lat": 47.8264789302915, "lng": 13.0108108802915}, "southwest": {"lat": 47.8237809697085, "lng": 13.0081129197085}}}, "icon": "https://maps.gstatic.com/mapfiles/place_api/icons/restaurant-71.png", "id": "a6323981471361235294d35402bebbfd55ce7deb", "name": "Hartlwirt Braugast Betriebsges.m.b.H.", "opening_hours": {"open_now": false}, "photos": [{"height": 580, "html_attributions": ["<a href=\"https://maps.google.com/maps/contrib/114784881529051041201/photos\">Hartlwirt Braugast Betriebsges.m.b.H.</a>"], "photo_reference": "CmRaAAAAlnzyayX0SWoQg7V3jZAj77HWy8Jie0opqmIXMlsN7qJ_vHrsbTc7EkaY9-FO4A2bAiT2yeU1Bzb00WTyPDcDfIwaELuvRDnJuAWY03BDNpPGvLDKVLtN1-yCrn-oJ8fZEhCYfBUzLMhlDsfTfHSRAxN2GhQjU1WhyRYrcfd0C8arpCVatxiijQ", "width": 970}], "place_id": "ChIJqRoS7qyadkcRSgNXIrQbGDQ", "plus_code": {"compound_code": "R2G5+2R Salzburg, Austria", "global_code": "8FVMR2G5+2R"}, "price_level": 2, "rating": 4.3, "reference": "ChIJqRoS7qyadkcRSgNXIrQbGDQ", "scope": "GOOGLE", "types": ["lodging", "restaurant", "food", "point_of_interest", "establishment"], "user_ratings_total": 106, "vicinity": "Lieferinger Hauptstra\u00dfe 120, Salzburg"}, {"geometry": {"location": {"lat": 47.8107413, "lng": 13.0332181}, "viewport": {"northeast": {"lat": 47.8120970302915, "lng": 13.0344812802915}, "southwest": {"lat": 47.8093990697085, "lng": 13.0317833197085}}}, "icon": "https://maps.gstatic.com/mapfiles/place_api/icons/restaurant-71.png", "id": "6e714c1262e06033feb229bce6beb0b67f693819", "name": "Schnitzl Max", "opening_hours": {"open_now": false}, "photos": [{"height": 3096, "html_attributions": ["<a href=\"https://maps.google.com/maps/contrib/101499191262070472069/photos\">Makarov Beats</a>"], "photo_reference": "CmRaAAAAyCxLg859_rWzU8L9lOh7_TZcOp048PIwPTKTxOSf2nOBJuawPzS8RQFqewxO4aKGPXhPpV66w2wQDa3s3N98fZDtbKzBUTG2etJ0XwTgKBGEkY02YHsiV_l2M5sJGGWyEhCcfVqpcZRRF67dOqjsBSWDGhQrSgzLfg-zeM8LFXQm2jzzZuyM0g", "width": 4128}], "place_id": "ChIJzZfzB3SQdkcRRdLPbUNqRTM", "plus_code": {"compound_code": "R26M+77 Salzburg, Austria", "global_code": "8FVMR26M+77"}, "price_level": 1, "rating": 4, "reference": "ChIJzZfzB3SQdkcRRdLPbUNqRTM", "scope": "GOOGLE", "types": ["restaurant", "food", "point_of_interest", "establishment"], "user_ratings_total": 51, "vicinity": "Gaswerkgasse 22, Salzburg"}, {"geometry": {"location": {"lat": 47.8266509, "lng": 13.0100954}, "viewport": {"northeast": {"lat": 47.8281963802915, "lng": 13.0116996302915}, "southwest": {"lat": 47.8254984197085, "lng": 13.0090016697085}}}, "icon": "https://maps.gstatic.com/mapfiles/place_api/icons/restaurant-71.png", "id": "9bd511f936eba372c7553fbb2c27426c1a593001", "name": "Restaurant Brandst\u00e4tter", "opening_hours": {"open_now": false}, "photos": [{"height": 2736, "html_attributions": ["<a href=\"https://maps.google.com/maps/contrib/112951838548256011972/photos\">Restaurant Brandst\u00e4tter</a>"], "photo_reference": "CmRaAAAAPrrCFmCXrRYCZUjLfSeMCpjo8iF-ffRbe40YKDT1vtvU1OpHa7LGhd0pigXiFPKLL7PDE8kTzd0RZhpPkllaBh6DcfISJANk_WrCdbHsn4CGvn3tvt8wRVfgpECBgogPEhCbhgdSDz77SbctJffUii23GhT9lKZwFh3E2n3M8axyafjOZqtJHw", "width": 3648}], "place_id": "ChIJ5SzyEK2adkcRdcgIaYshHOw", "plus_code": {"compound_code": "R2G6+M2 Salzburg, Austria", "global_code": "8FVMR2G6+M2"}, "rating": 4.3, "reference": "ChIJ5SzyEK2adkcRdcgIaYshHOw", "scope": "GOOGLE", "types": ["restaurant", "food", "point_of_interest", "establishment"], "user_ratings_total": 32, "vicinity": "M\u00fcnchner Bundesstra\u00dfe 69, Salzburg"}, {"geometry": {"location": {"lat": 47.8166034, "lng": 13.0091411}, "viewport": {"northeast": {"lat": 47.8179596302915, "lng": 13.0105032302915}, "southwest": {"lat": 47.8152616697085, "lng": 13.00780526970849}}}, "icon": "https://maps.gstatic.com/mapfiles/place_api/icons/restaurant-71.png", "id": "1897de8d0be8599281bbc9bdb0b6436300e3d802", "name": "Magazin Handels GmbH & Co. KEG", "photos": [{"height": 4032, "html_attributions": ["<a href=\"https://maps.google.com/maps/contrib/113639520566872692306/photos\">Oliver Steidl</a>"], "photo_reference": "CmRaAAAA9Hqa76N1OvX-ma2N6AnQNdB4_lqyVdodxVkhkpPr4LYzPnrFkkB9TJlHP2b5GM002LOI61YBEmvd3CLxQ1DIi2rdy_LiUZaPW5TrEUYu-8VNlOiobpCSAri_1i3WyQf5EhDNadk8dkKKnFbbTRQofvV-GhSdpBCmpL-8c9SJ0OC6Fsqj27t5Wg", "width": 3024}], "place_id": "ChIJtZ2s2gCQdkcR0wikn_SgMZ8", "plus_code": {"compound_code": "R285+JM Salzburg, Austria", "global_code": "8FVMR285+JM"}, "rating": 4, "reference": "ChIJtZ2s2gCQdkcR0wikn_SgMZ8", "scope": "GOOGLE", "types": ["restaurant", "food", "point_of_interest", "establishment"], "user_ratings_total": 1, "vicinity": "Europastra\u00dfe 1, Salzburg"}, {"geometry": {"location": {"lat": 47.81140800000001, "lng": 13.030642}, "viewport": {"northeast": {"lat": 47.8127210302915, "lng": 13.0319851802915}, "southwest": {"lat": 47.8100230697085, "lng": 13.0292872197085}}}, "icon": "https://maps.gstatic.com/mapfiles/place_api/icons/restaurant-71.png", "id": "890603824636f3797cef1f9af259178d8e6bf530", "name": "Tokyo Bay", "opening_hours": {"open_now": false}, "photos": [{"height": 1365, "html_attributions": ["<a href=\"https://maps.google.com/maps/contrib/105391582483144291652/photos\">Tokyo Bay</a>"], "photo_reference": "CmRaAAAA_aXbY4Xrh8QBH7Gfr85RiamGaIlXXp5Oq9xTJgN5lP8jw0qtU2mLj4-q1HB7lx2cUqJ_5exFv9Ss2aulkfhdqCy9XT2dvppcocNzAiu_a7i2ri5osKhLHuWGDdA4rxmkEhCq_wyfGOOi7DGghKSDSJkzGhT3Yozq5ApRwTpsQyZj3eFC_mpJcw", "width": 2048}], "place_id": "ChIJTUoqcnSQdkcRK1tt9KhSSN0", "plus_code": {"compound_code": "R26J+H7 Salzburg, Austria", "global_code": "8FVMR26J+H7"}, "price_level": 2, "rating": 4.6, "reference": "ChIJTUoqcnSQdkcRK1tt9KhSSN0", "scope": "GOOGLE", "types": ["restaurant", "food", "point_of_interest", "establishment"], "user_ratings_total": 403, "vicinity": "Ignaz-Harrer-Stra\u00dfe 38, Salzburg"}]